
{"version":3,"status":"ok","response":{"data":[{"address":"595 Piedmont Ave NE","category_ids":[171],"category_labels":[["Retail","Supermarkets and Groceries"]],"chain_id":"38c50a84-f1fa-4b04-87c9-09a98a7a264f","chain_name":"Publix","country":"us","factual_id":"328d0463-11b6-4553-8da2-bd5eb355fbcd","fax":"(404) 881-6711","hours":{"monday":[["7:00","23:00"]],"tuesday":[["7:00","23:00"]],"wednesday":[["7:00","23:00"]],"thursday":[["7:00","23:00"]],"friday":[["7:00","23:00"]],"saturday":[["7:00","23:00"]],"sunday":[["7:00","23:00"]]},"hours_display":"Open Daily 7:00 AM-11:00 PM","latitude":33.770364,"locality":"Atlanta","longitude":-84.381179,"name":"Publix","neighborhood":["Bedford Pine","Downtown"],"postcode":"30308","region":"GA","tel":"(404) 881-1750","website":"http://www.publix.com","$distance":816.3605},{"address":"950 W Peachtree St NW","category_ids":[171],"category_labels":[["Retail","Supermarkets and Groceries"]],"chain_id":"38c50a84-f1fa-4b04-87c9-09a98a7a264f","chain_name":"Publix","country":"us","factual_id":"264e6eda-d9a7-4b54-b005-9aa5b6f71081","fax":"(404) 253-3686","hours":{"monday":[["6:45","23:00"]],"tuesday":[["6:45","23:00"]],"wednesday":[["6:45","23:00"]],"thursday":[["6:45","23:00"]],"friday":[["6:45","23:00"]],"saturday":[["6:45","23:00"]],"sunday":[["6:45","23:00"]]},"hours_display":"Open Daily 6:45 AM-11:00 PM","latitude":33.779972,"locality":"Atlanta","longitude":-84.388541,"name":"Publix","neighborhood":["Midtown"],"postcode":"30309","region":"GA","tel":"(404) 253-3544","website":"http://www.publix.com","$distance":1117.0073},{"address":"75 Ponce De Leon Ave NE","category_ids":[171],"category_labels":[["Retail","Supermarkets and Groceries"]],"country":"us","factual_id":"81cf5280-1e18-012f-0643-0030487f54d8","latitude":33.77206,"locality":"Atlanta","longitude":-84.384841,"name":"Peachtree Superette","neighborhood":["Centennial Place","Techwood","Downtown"],"postcode":"30308","region":"GA","tel":"(404) 733-4098","$distance":529.0225},{"address":"388 Luckie St NW","category_ids":[171],"category_labels":[["Retail","Supermarkets and Groceries"]],"country":"us","factual_id":"574ed81a-6de4-4fa3-a98c-7b6be56307e1","latitude":33.765087,"locality":"Atlanta","longitude":-84.396195,"name":"Luckie Street Grocery","neighborhood":["Techwood","Downtown","Brooklyn"],"postcode":"30313","region":"GA","tel":"(404) 524-4369","$distance":791.4328},{"address":"620 Peachtree St NE","address_extended":"Ste 100","category_ids":[171],"category_labels":[["Retail","Supermarkets and Groceries"]],"country":"us","factual_id":"22996f00-a9e5-429f-8661-44ef985a16b3","latitude":33.771621,"locality":"Atlanta","longitude":-84.385185,"name":"Tommy Grocery","neighborhood":["Downtown","Centennial Place","Techwood"],"postcode":"30308","region":"GA","tel":"(404) 892-5193","$distance":480.17844},{"address":"521 Peachtree St NE","category_ids":[171],"category_labels":[["Retail","Supermarkets and Groceries"]],"country":"us","factual_id":"2b21ee46-4e2b-466e-b3fd-306d24590b82","latitude":33.768715,"locality":"Atlanta","longitude":-84.385023,"name":"JNJ Produce","neighborhood":["Brooklyn","Downtown","Bedford Pine"],"postcode":"30308","region":"GA","tel":"(404) 292-7691","$distance":481.7249},{"address":"943 Peachtree St NE","address_extended":"Unit 1001","category_ids":[445],"category_labels":[["Retail","Party Supplies"]],"country":"us","factual_id":"64291e5e-6232-4a5e-b3cd-5e5a57fb5618","hours":{"monday":[["9:00","18:00"]],"tuesday":[["9:00","18:00"]],"wednesday":[["9:00","18:00"]],"thursday":[["9:00","18:00"]],"friday":[["9:00","18:00"]],"saturday":[["9:00","14:00"]]},"hours_display":"Mon-Fri 9:00 AM-6:00 PM; Sat 9:00 AM-2:00 PM","latitude":33.7802,"locality":"Atlanta","longitude":-84.383539,"name":"Skyflicks","neighborhood":["Midtown"],"postcode":"30309","region":"GA","tel":"(404) 493-3250","website":"http://www.skyflicks.net","$distance":1281.7992},{"address":"710 Peachtree St NE","category_ids":[171],"category_labels":[["Retail","Supermarkets and Groceries"]],"country":"us","factual_id":"6d2f4693-8f44-48dc-b207-b5eb7f478ddb","latitude":33.774085,"locality":"Atlanta","longitude":-84.384968,"name":"Howell House Grocery","neighborhood":["Midtown","Centennial Place"],"postcode":"30308","region":"GA","tel":"(404) 876-2002","$distance":650.1224},{"address":"785 Argonne Ave NE","category_ids":[171],"category_labels":[["Retail","Supermarkets and Groceries"]],"country":"us","factual_id":"9f53f50b-8ee0-4175-b1a7-d6d96d5a268e","latitude":33.776055,"locality":"Atlanta","longitude":-84.377489,"name":"L & M Service Market","neighborhood":["Midtown"],"postcode":"30308","region":"GA","tel":"(404) 876-0576","$distance":1338.1221},{"address":"670 14th St NW","category_ids":[445],"category_labels":[["Retail","Party Supplies"]],"country":"us","email":"customerservice@tlcrents.com","factual_id":"7b8d5a75-f4fa-4d62-afd7-7a881581d129","fax":"(404) 874-3157","hours":{"monday":[["8:30","17:30"]],"tuesday":[["8:30","17:30"]],"wednesday":[["8:30","17:30"]],"thursday":[["8:30","17:30"]],"friday":[["8:30","17:30"]],"saturday":[["10:00","13:00"]]},"hours_display":"Mon-Fri 8:30 AM-5:30 PM; Sat 10:00 AM-1:00 PM","latitude":33.785708,"locality":"Atlanta","longitude":-84.409078,"name":"Tlc Rents","neighborhood":["Midtown","Loring Heights"],"postcode":"30318","region":"GA","tel":"(404) 873-0833","website":"http://www.tlcrents.com","$distance":2481.9316},{"address":"250 Williams St NW","address_extended":"Ste 500","category_ids":[80,171],"category_labels":[["Healthcare","Pharmacies"],["Retail","Supermarkets and Groceries"]],"country":"us","factual_id":"97b1de40-3f30-458a-8250-563ac35c779f","latitude":33.761475,"locality":"Atlanta","longitude":-84.390795,"name":"Island News Stand","neighborhood":["Brooklyn","Downtown"],"postcode":"30303","region":"GA","tel":"(404) 577-1238","$distance":950.78235},{"address":"200 Auburn Ave NE","category_ids":[171],"category_labels":[["Retail","Supermarkets and Groceries"]],"country":"us","factual_id":"56189cd0-0841-4f01-8072-045d2c8e547a","hours":{"monday":[["8:00","23:00"]],"tuesday":[["8:00","23:00"]],"wednesday":[["8:00","23:00"]],"thursday":[["8:00","23:00"]],"friday":[["8:00","23:00"]],"saturday":[["8:00","23:00"]]},"hours_display":"Mon-Sat 8:00 AM-11:00 PM","latitude":33.755639,"locality":"Atlanta","longitude":-84.380866,"name":"Sweet Auburn Grocery","neighborhood":["Grady","Downtown"],"postcode":"30303","region":"GA","tel":"(404) 343-1418","$distance":1806.3629},{"address":"756 W Peachtree St NW","category_ids":[445],"category_labels":[["Retail","Party Supplies"]],"country":"us","factual_id":"20fc5b31-6dc4-4dba-98d5-64a0c66a102b","latitude":33.775328,"locality":"Atlanta","longitude":-84.387503,"name":"Imaging Technologies Ga Blue","neighborhood":["Midtown","Centennial Place"],"po_box":"P.O. Box 55152","postcode":"30308","region":"GA","tel":"(404) 872-8383","$distance":635.8164},{"address":"300 Peachtree St NE","category_ids":[171],"category_labels":[["Retail","Supermarkets and Groceries"]],"country":"us","factual_id":"4e66f376-2bf4-4c9c-9653-5376bd6586b1","latitude":33.763226,"locality":"Atlanta","longitude":-84.386907,"name":"AJL Food Mart","neighborhood":["Brooklyn","Downtown"],"postcode":"30308","region":"GA","tel":"(678) 927-9098","$distance":805.6721},{"address":"209 Edgewood Ave SE","address_extended":"Ste 134","category_ids":[171],"category_labels":[["Retail","Supermarkets and Groceries"]],"country":"us","email":"donate@opencart.com","factual_id":"0608a0f6-fdd8-427a-b8ed-f07f9b7ca879","hours":{"monday":[["10:00","18:00"]],"tuesday":[["10:00","18:00"]],"wednesday":[["10:00","18:00"]],"thursday":[["10:00","18:00"]],"friday":[["10:00","18:00"]],"saturday":[["10:00","18:00"]]},"hours_display":"Mon-Sat 10:00 AM-6:00 PM","latitude":33.754202,"locality":"Atlanta","longitude":-84.379962,"name":"Miss D's Pralines","neighborhood":["Downtown","Grady"],"postcode":"30303","region":"GA","tel":"(404) 963-1687","website":"http://www.thecurbmarket.com/explore-the-market/miss-ds","$distance":1986.6853},{"address":"230 Ted Turner Dr NW","address_extended":"Ste 1115","category_ids":[445],"category_labels":[["Retail","Party Supplies"]],"country":"us","email":"thesource@oldworldchristmas.co","factual_id":"11d835ae-1738-4976-89bf-06a44e564e0d","fax":"(770) 507-8322","latitude":33.760839,"locality":"Atlanta","longitude":-84.387497,"name":"Old World Christmas","neighborhood":["Downtown"],"postcode":"30303","region":"GA","tel":"(404) 577-8293","website":"http://www.oldworldchristmas.com/","$distance":1044.6044},{"address":"2 Peachtree St NW","address_extended":"Lbby","category_ids":[171],"category_labels":[["Retail","Supermarkets and Groceries"]],"country":"us","factual_id":"c91d5e14-a13b-4f59-b1ec-36288aa62347","latitude":33.754258,"locality":"Atlanta","longitude":-84.390389,"name":"R & R Produce","neighborhood":["Brooklyn","Downtown","Five Points"],"postcode":"30303","region":"GA","tel":"(404) 658-1593","$distance":1750.8022},{"address":"48 Northside Dr SW","category_ids":[171],"category_labels":[["Retail","Supermarkets and Groceries"]],"country":"us","factual_id":"7c20b84d-d8df-4adf-8109-0432069d7a35","latitude":33.753088,"locality":"Atlanta","longitude":-84.402722,"name":"Northside Grocery","neighborhood":["Downtown","Castleberry Hill"],"postcode":"30313","region":"GA","tel":"(404) 521-9656","$distance":2217.997},{"address":"950 Marietta St NW","category_ids":[171],"category_labels":[["Retail","Supermarkets and Groceries"]],"country":"us","factual_id":"af60c353-e8ac-4da5-8648-8bd07a76e216","latitude":33.777177,"locality":"Atlanta","longitude":-84.408636,"name":"M Street Corner Market","neighborhood":["Midtown","Bellwood"],"postcode":"30318","region":"GA","tel":"(404) 879-9700","$distance":1898.4114},{"address":"235 Peachtree St NE","category_ids":[445],"category_labels":[["Retail","Party Supplies"]],"country":"us","factual_id":"7df10d30-1e18-012f-0643-0030487f54d8","latitude":33.760558,"locality":"Atlanta","longitude":-84.387144,"name":"A Plus Inflatable Party Rentals","neighborhood":["Downtown"],"postcode":"30303","region":"GA","tel":"(404) 592-8701","$distance":1082.5881}],"included_rows":20}}